{
"type": "FeatureCollection",
"features": [
{ "type": "Feature", "properties": { "id": "06065", "name": "Riverside", "date": "2020\/4\/9", "county": "Riverside", "state": "California", "fips": 6065.0, "cases": 4031.0, "deaths": 149.0 }, "geometry": { "type": "Polygon", "coordinates": [ [ [ -114.733044, 34.081054 ], [ -114.43729, 34.081054 ], [ -114.628982, 33.434775 ], [ -114.733044, 33.434775 ], [ -116.085849, 33.423821 ], [ -117.476991, 33.505975 ], [ -117.509853, 33.505975 ], [ -117.674161, 33.87293 ], [ -117.559146, 34.031761 ], [ -114.733044, 34.081054 ] ] ] } },
{ "type": "Feature", "properties": { "id": "11001", "name": "District of Columbia", "date": "2020\/4\/9", "county": "District of Columbia", "state": "District of Columbia", "fips": 11001.0, "cases": 4323.0, "deaths": 224.0 }, "geometry": { "type": "Polygon", "coordinates": [ [ [ -77.035264, 38.993869 ], [ -77.002402, 38.966484 ], [ -77.040741, 38.791222 ], [ -77.046218, 38.840515 ], [ -77.117418, 38.933623 ], [ -77.035264, 38.993869 ] ] ] } },
{ "type": "Feature", "properties": { "id": "12011", "name": "Broward", "date": "2020\/4\/9", "county": "Broward", "state": "Florida", "fips": 12011.0, "cases": 4953.0, "deaths": 185.0 }, "geometry": { "type": "Polygon", "coordinates": [ [ [ -80.250228, 26.33666 ], [ -80.074966, 26.320229 ], [ -80.118781, 25.975182 ], [ -80.874599, 25.980659 ], [ -80.880076, 26.259983 ], [ -80.880076, 26.331183 ], [ -80.250228, 26.33666 ] ] ] } },
{ "type": "Feature", "properties": { "id": "51121", "name": "Montgomery", "date": "2020\/4\/9", "county": "Montgomery", "state": "Virginia", "fips": 51121.0, "cases": 4326.0, "deaths": 351.0 }, "geometry": { "type": "Polygon", "coordinates": [ [ [ -80.261182, 37.339833 ], [ -80.179028, 37.115279 ], [ -80.545983, 36.983832 ], [ -80.578844, 37.087894 ], [ -80.529552, 37.131709 ], [ -80.606229, 37.246725 ], [ -80.430967, 37.312448 ], [ -80.261182, 37.339833 ] ] ] } }
]
}
