{
"type": "FeatureCollection",
"features": [
{ "type": "Feature", "properties": { "id": "12011", "name": "Broward", "date": "2020\/3\/9", "county": "Broward", "state": "Florida", "fips": 12011.0, "cases": 1219.0, "deaths": 12.0 }, "geometry": { "type": "Polygon", "coordinates": [ [ [ -80.250228, 26.33666 ], [ -80.074966, 26.320229 ], [ -80.118781, 25.975182 ], [ -80.874599, 25.980659 ], [ -80.880076, 26.259983 ], [ -80.880076, 26.331183 ], [ -80.250228, 26.33666 ] ] ] } },
{ "type": "Feature", "properties": { "id": "34023", "name": "Middlesex", "date": "2020\/3\/9", "county": "Middlesex", "state": "New Jersey", "fips": 34023.0, "cases": 1340.0, "deaths": 24.0 }, "geometry": { "type": "Polygon", "coordinates": [ [ [ -74.291317, 40.593136 ], [ -74.209163, 40.593136 ], [ -74.225593, 40.450735 ], [ -74.48301, 40.253565 ], [ -74.619933, 40.374058 ], [ -74.461102, 40.598613 ], [ -74.291317, 40.593136 ] ] ] } },
{ "type": "Feature", "properties": { "id": "34025", "name": "Monmouth", "date": "2020\/3\/9", "county": "Monmouth", "state": "New Jersey", "fips": 34025.0, "cases": 1140.0, "deaths": 21.0 }, "geometry": { "type": "Polygon", "coordinates": [ [ [ -74.0339, 40.100211 ], [ -74.406332, 40.171411 ], [ -74.55421, 40.078303 ], [ -74.587071, 40.13855 ], [ -74.48301, 40.253565 ], [ -74.225593, 40.450735 ], [ -74.0339, 40.100211 ] ] ] } },
{ "type": "Feature", "properties": { "id": "34029", "name": "Ocean", "date": "2020\/3\/31", "county": "Ocean", "state": "New Jersey", "fips": 34029.0, "cases": 1022.0, "deaths": 18.0 }, "geometry": { "type": "Polygon", "coordinates": [ [ [ -74.406332, 40.171411 ], [ -74.0339, 40.100211 ], [ -74.313224, 39.497748 ], [ -74.417286, 39.557994 ], [ -74.55421, 40.078303 ], [ -74.406332, 40.171411 ] ] ] } },
{ "type": "Feature", "properties": { "id": "34031", "name": "Passaic", "date": "2020\/3\/9", "county": "Passaic", "state": "New Jersey", "fips": 34031.0, "cases": 1294.0, "deaths": 11.0 }, "geometry": { "type": "Polygon", "coordinates": [ [ [ -74.367994, 41.201076 ], [ -74.236547, 41.14083 ], [ -74.21464, 41.135353 ], [ -74.132485, 40.81769 ], [ -74.269409, 40.899844 ], [ -74.504917, 41.08606 ], [ -74.367994, 41.201076 ] ] ] } },
{ "type": "Feature", "properties": { "id": "42101", "name": "Philadelphia", "date": "2020\/3\/31", "county": "Philadelphia", "state": "Pennsylvania", "fips": 42101.0, "cases": 1315.0, "deaths": 14.0 }, "geometry": { "type": "Polygon", "coordinates": [ [ [ -75.025227, 40.133073 ], [ -75.014273, 40.13855 ], [ -74.975934, 40.050919 ], [ -75.058088, 39.990672 ], [ -75.140242, 39.88661 ], [ -75.211443, 39.864703 ], [ -75.277166, 39.974241 ], [ -75.025227, 40.133073 ] ] ] } },
{ "type": "Feature", "properties": { "id": "47173", "name": "Union", "date": "2020\/3\/9", "county": "Union", "state": "Tennessee", "fips": 47173.0, "cases": 1418.0, "deaths": 24.0 }, "geometry": { "type": "Polygon", "coordinates": [ [ [ -83.903347, 36.419707 ], [ -83.667839, 36.34303 ], [ -83.733562, 36.162291 ], [ -83.925255, 36.173245 ], [ -83.941686, 36.184199 ], [ -84.001932, 36.27183 ], [ -83.903347, 36.419707 ] ] ] } },
{ "type": "Feature", "properties": { "id": "53061", "name": "Snohomish", "date": "2020\/3\/9", "county": "Snohomish", "state": "Washington", "fips": 53061.0, "cases": 1228.0, "deaths": 32.0 }, "geometry": { "type": "Polygon", "coordinates": [ [ [ -121.836636, 48.299191 ], [ -121.004141, 48.293714 ], [ -121.119157, 47.778881 ], [ -121.234173, 47.778881 ], [ -122.395284, 47.778881 ], [ -122.395284, 48.227991 ], [ -122.406238, 48.249898 ], [ -122.378853, 48.299191 ], [ -121.836636, 48.299191 ] ] ] } },
{ "type": "Feature", "properties": { "id": "55055", "name": "Jefferson", "date": "2020\/3\/9", "county": "Jefferson", "state": "Wisconsin", "fips": 55055.0, "cases": 1193.0, "deaths": 57.0 }, "geometry": { "type": "Polygon", "coordinates": [ [ [ -88.991425, 43.200159 ], [ -88.536839, 43.194682 ], [ -88.542316, 42.844158 ], [ -88.547792, 42.844158 ], [ -88.777824, 42.844158 ], [ -89.013332, 42.849635 ], [ -89.007855, 43.200159 ], [ -88.991425, 43.200159 ] ] ] } }
]
}
