{
"type": "FeatureCollection",
"features": [
{ "type": "Feature", "properties": { "id": "06065", "name": "Riverside", "date": "2020\/5\/9", "county": "Riverside", "state": "California", "fips": 6065.0, "cases": 7492.0, "deaths": 339.0 }, "geometry": { "type": "Polygon", "coordinates": [ [ [ -114.733044, 34.081054 ], [ -114.43729, 34.081054 ], [ -114.628982, 33.434775 ], [ -114.733044, 33.434775 ], [ -116.085849, 33.423821 ], [ -117.476991, 33.505975 ], [ -117.509853, 33.505975 ], [ -117.674161, 33.87293 ], [ -117.559146, 34.031761 ], [ -114.733044, 34.081054 ] ] ] } },
{ "type": "Feature", "properties": { "id": "06073", "name": "San Diego", "date": "2020\/5\/9", "county": "San Diego", "state": "California", "fips": 6073.0, "cases": 7544.0, "deaths": 312.0 }, "geometry": { "type": "Polygon", "coordinates": [ [ [ -117.476991, 33.505975 ], [ -116.085849, 33.423821 ], [ -116.107756, 32.61871 ], [ -117.126467, 32.536556 ], [ -117.597484, 33.385482 ], [ -117.509853, 33.505975 ], [ -117.476991, 33.505975 ] ] ] } },
{ "type": "Feature", "properties": { "id": "12011", "name": "Broward", "date": "2020\/5\/9", "county": "Broward", "state": "Florida", "fips": 12011.0, "cases": 7123.0, "deaths": 313.0 }, "geometry": { "type": "Polygon", "coordinates": [ [ [ -80.250228, 26.33666 ], [ -80.074966, 26.320229 ], [ -80.118781, 25.975182 ], [ -80.874599, 25.980659 ], [ -80.880076, 26.259983 ], [ -80.880076, 26.331183 ], [ -80.250228, 26.33666 ] ] ] } },
{ "type": "Feature", "properties": { "id": "17043", "name": "DuPage", "date": "2020\/5\/9", "county": "DuPage", "state": "Illinois", "fips": 17043.0, "cases": 7717.0, "deaths": 373.0 }, "geometry": { "type": "Polygon", "coordinates": [ [ [ -87.928898, 41.995232 ], [ -88.027483, 41.683047 ], [ -88.03296, 41.726862 ], [ -88.262992, 41.726862 ], [ -88.262992, 41.726862 ], [ -88.262992, 41.984279 ], [ -87.928898, 41.995232 ] ] ] } },
{ "type": "Feature", "properties": { "id": "25023", "name": "Plymouth", "date": "2020\/5\/9", "county": "Plymouth", "state": "Massachusetts", "fips": 25023.0, "cases": 7859.0, "deaths": 552.0 }, "geometry": { "type": "Polygon", "coordinates": [ [ [ -70.901091, 42.269079 ], [ -70.906568, 42.269079 ], [ -70.824413, 42.263602 ], [ -70.780598, 42.252649 ], [ -70.539613, 41.809016 ], [ -70.643674, 41.715908 ], [ -70.840844, 41.628277 ], [ -71.08183, 42.093817 ], [ -70.901091, 42.269079 ] ] ] } },
{ "type": "Feature", "properties": { "id": "44001", "name": "Bristol", "date": "2020\/5\/9", "county": "Bristol", "state": "Rhode Island", "fips": 44001.0, "cases": 7159.0, "deaths": 415.0 }, "geometry": { "type": "Polygon", "coordinates": [ [ [ -71.317338, 41.776155 ], [ -71.22423, 41.710431 ], [ -71.355677, 41.726862 ], [ -71.366631, 41.737816 ], [ -71.317338, 41.776155 ] ] ] } },
{ "type": "Feature", "properties": { "id": "50019", "name": "Orleans", "date": "2020\/5\/9", "county": "Orleans", "state": "Vermont", "fips": 50019.0, "cases": 7127.0, "deaths": 507.0 }, "geometry": { "type": "Polygon", "coordinates": [ [ [ -71.897894, 45.00755 ], [ -71.941709, 44.766564 ], [ -72.374388, 44.585825 ], [ -72.577034, 44.782995 ], [ -72.555127, 45.00755 ], [ -71.897894, 45.00755 ] ] ] } },
{ "type": "Feature", "properties": { "id": "55055", "name": "Jefferson", "date": "2020\/5\/9", "county": "Jefferson", "state": "Wisconsin", "fips": 55055.0, "cases": 7584.0, "deaths": 450.0 }, "geometry": { "type": "Polygon", "coordinates": [ [ [ -88.991425, 43.200159 ], [ -88.536839, 43.194682 ], [ -88.542316, 42.844158 ], [ -88.547792, 42.844158 ], [ -88.777824, 42.844158 ], [ -89.013332, 42.849635 ], [ -89.007855, 43.200159 ], [ -88.991425, 43.200159 ] ] ] } },
{ "type": "Feature", "properties": { "id": "55079", "name": "Milwaukee", "date": "2020\/5\/9", "county": "Milwaukee", "state": "Wisconsin", "fips": 55079.0, "cases": 7750.0, "deaths": 299.0 }, "geometry": { "type": "Polygon", "coordinates": [ [ [ -87.972714, 43.194682 ], [ -87.89056, 43.194682 ], [ -87.824836, 42.844158 ], [ -87.956283, 42.844158 ], [ -88.071299, 42.844158 ], [ -88.065822, 43.194682 ], [ -87.972714, 43.194682 ] ] ] } }
]
}
